[
  { "id": "cz-prague-suburb", "country": "Czech Republic", "countryCode": "CZ", "lat": 50.0755, "lng": 14.4378, "city": "Prague", "region": "Bohemia", "difficulty": "Easy", "panoramaImage": "", "clues": ["blue road signs", "Czech diacritics", ".cz domain"] },
  { "id": "de-bavaria-road", "country": "Germany", "countryCode": "DE", "lat": 48.1351, "lng": 11.582, "city": "Munich", "region": "Bavaria", "difficulty": "Easy", "panoramaImage": "", "clues": ["Autobahn signs", "umlauts", ".de domain"] },
  { "id": "fr-provence-lane", "country": "France", "countryCode": "FR", "lat": 43.9352, "lng": 6.0679, "city": "Provence", "region": "Alpes-de-Haute-Provence", "difficulty": "Medium", "panoramaImage": "", "clues": ["French village signs", "D-road marker", ".fr domain"] },
  { "id": "es-andalusia", "country": "Spain", "countryCode": "ES", "lat": 37.3891, "lng": -5.9845, "city": "Seville", "region": "Andalusia", "difficulty": "Medium", "panoramaImage": "", "clues": ["Spanish language", "whitewashed walls", ".es domain"] },
  { "id": "it-tuscany", "country": "Italy", "countryCode": "IT", "lat": 43.7711, "lng": 11.2486, "city": "Florence", "region": "Tuscany", "difficulty": "Medium", "panoramaImage": "", "clues": ["Italian words", "cypress trees", ".it domain"] },
  { "id": "pl-krakow", "country": "Poland", "countryCode": "PL", "lat": 50.0647, "lng": 19.945, "city": "Krakow", "region": "Lesser Poland", "difficulty": "Easy", "panoramaImage": "", "clues": ["Polish letters", "yellow pedestrian signs", ".pl domain"] },
  { "id": "gb-yorkshire", "country": "United Kingdom", "countryCode": "GB", "lat": 53.9583, "lng": -1.0803, "city": "York", "region": "Yorkshire", "difficulty": "Easy", "panoramaImage": "", "clues": ["left-side driving", "yellow rear plates", ".uk domain"] },
  { "id": "us-arizona", "country": "United States", "countryCode": "US", "lat": 34.0489, "lng": -111.0937, "city": "Flagstaff", "region": "Arizona", "difficulty": "Medium", "panoramaImage": "", "clues": ["US route shields", "miles", "desert vegetation"] },
  { "id": "ca-banff", "country": "Canada", "countryCode": "CA", "lat": 51.1784, "lng": -115.5708, "city": "Banff", "region": "Alberta", "difficulty": "Medium", "panoramaImage": "", "clues": ["Trans-Canada Highway", "mountain parks", ".ca domain"] },
  { "id": "br-rio", "country": "Brazil", "countryCode": "BR", "lat": -22.9068, "lng": -43.1729, "city": "Rio de Janeiro", "region": "Rio de Janeiro", "difficulty": "Medium", "panoramaImage": "", "clues": ["Portuguese language", "PARE signs", ".br domain"] },
  { "id": "jp-tokyo", "country": "Japan", "countryCode": "JP", "lat": 35.6762, "lng": 139.6503, "city": "Tokyo", "region": "Kanto", "difficulty": "Easy", "panoramaImage": "", "clues": ["Japanese script", "left-side driving", "vending machines"] },
  { "id": "kr-seoul", "country": "South Korea", "countryCode": "KR", "lat": 37.5665, "lng": 126.978, "city": "Seoul", "region": "Capital Area", "difficulty": "Medium", "panoramaImage": "", "clues": ["Hangul signs", "wide avenues", ".kr domain"] },
  { "id": "au-outback", "country": "Australia", "countryCode": "AU", "lat": -25.2744, "lng": 133.7751, "city": "Alice Springs", "region": "Northern Territory", "difficulty": "Medium", "panoramaImage": "", "clues": ["red dirt", "left-side driving", "road train warning"] },
  { "id": "za-cape-town", "country": "South Africa", "countryCode": "ZA", "lat": -33.9249, "lng": 18.4241, "city": "Cape Town", "region": "Western Cape", "difficulty": "Hard", "panoramaImage": "", "clues": ["left-side driving", "Table Mountain", ".za domain"] },
  { "id": "no-fjord", "country": "Norway", "countryCode": "NO", "lat": 60.3913, "lng": 5.3221, "city": "Bergen", "region": "Vestland", "difficulty": "Medium", "panoramaImage": "", "clues": ["fjord landscape", "Norwegian letters", ".no domain"] },
  { "id": "se-stockholm", "country": "Sweden", "countryCode": "SE", "lat": 59.3293, "lng": 18.0686, "city": "Stockholm", "region": "Svealand", "difficulty": "Medium", "panoramaImage": "", "clues": ["Swedish signs", "Nordic bike lanes", ".se domain"] },
  { "id": "fi-lapland", "country": "Finland", "countryCode": "FI", "lat": 66.5039, "lng": 25.7294, "city": "Rovaniemi", "region": "Lapland", "difficulty": "Hard", "panoramaImage": "", "clues": ["Finnish words", "snowy shoulders", ".fi domain"] },
  { "id": "mx-oaxaca", "country": "Mexico", "countryCode": "MX", "lat": 17.0732, "lng": -96.7266, "city": "Oaxaca", "region": "Oaxaca", "difficulty": "Medium", "panoramaImage": "", "clues": ["Spanish language", "topes signs", ".mx domain"] },
  { "id": "ar-buenos-aires", "country": "Argentina", "countryCode": "AR", "lat": -34.6037, "lng": -58.3816, "city": "Buenos Aires", "region": "Buenos Aires", "difficulty": "Medium", "panoramaImage": "", "clues": ["Spanish language", "wide avenues", ".ar domain"] },
  { "id": "nz-queenstown", "country": "New Zealand", "countryCode": "NZ", "lat": -45.0312, "lng": 168.6626, "city": "Queenstown", "region": "Otago", "difficulty": "Hard", "panoramaImage": "", "clues": ["left-side driving", "alpine lakes", ".nz domain"] }
]
